{"schema":1,"layer":"infrastructure","generatedAt":"2026-06-14T20:03:16.047Z","nodes":[{"lat":47.5113,"lon":34.5861,"layer":"infrastructure","tone":"gold","size":3.2,"label":"Zaporizhzhia NPP","source":"OSIRIS infrastructure","url":"","priority":false},{"lat":51.3278,"lon":25.8917,"layer":"infrastructure","tone":"gold","size":3.2,"label":"Rivne NPP","source":"OSIRIS infrastructure","url":"","priority":false},{"lat":47.8147,"lon":31.2186,"layer":"infrastructure","tone":"gold","size":3.2,"label":"South Ukraine NPP","source":"OSIRIS infrastructure","url":"","priority":false},{"lat":50.3017,"lon":26.6489,"layer":"infrastructure","tone":"gold","size":3.2,"label":"Khmelnytskyi NPP","source":"OSIRIS infrastructure","url":"","priority":false},{"lat":51.3891,"lon":30.0992,"layer":"infrastructure","tone":"gold","size":3.2,"label":"Chernobyl (Decommissioned)","source":"OSIRIS infrastructure","url":"","priority":false},{"lat":51.0125,"lon":2.1363,"layer":"infrastructure","tone":"gold","size":3.2,"label":"Gravelines NPP","source":"OSIRIS infrastructure","url":"","priority":false},{"lat":49.4158,"lon":6.2181,"layer":"infrastructure","tone":"gold","size":3.2,"label":"Cattenom NPP","source":"OSIRIS infrastructure","url":"","priority":false},{"lat":49.5386,"lon":-1.8811,"layer":"infrastructure","tone":"gold","size":3.2,"label":"Flamanville NPP","source":"OSIRIS infrastructure","url":"","priority":false},{"lat":44.3322,"lon":4.7306,"layer":"infrastructure","tone":"gold","size":3.2,"label":"Tricastin NPP","source":"OSIRIS infrastructure","url":"","priority":false},{"lat":52.2131,"lon":1.6186,"layer":"infrastructure","tone":"gold","size":3.2,"label":"Sizewell B NPP","source":"OSIRIS infrastructure","url":"","priority":false},{"lat":51.2081,"lon":-3.1319,"layer":"infrastructure","tone":"gold","size":3.2,"label":"Hinkley Point C","source":"OSIRIS infrastructure","url":"","priority":false},{"lat":57.2639,"lon":12.1128,"layer":"infrastructure","tone":"gold","size":3.2,"label":"Ringhals NPP","source":"OSIRIS infrastructure","url":"","priority":false},{"lat":61.2353,"lon":21.4469,"layer":"infrastructure","tone":"gold","size":3.2,"label":"Olkiluoto NPP","source":"OSIRIS infrastructure","url":"","priority":false},{"lat":51.3256,"lon":4.2589,"layer":"infrastructure","tone":"gold","size":3.2,"label":"Doel NPP","source":"OSIRIS infrastructure","url":"","priority":false},{"lat":47.5581,"lon":8.2286,"layer":"infrastructure","tone":"gold","size":3.2,"label":"Beznau NPP","source":"OSIRIS infrastructure","url":"","priority":false},{"lat":39.2142,"lon":-1.0486,"layer":"infrastructure","tone":"gold","size":3.2,"label":"Cofrentes NPP","source":"OSIRIS infrastructure","url":"","priority":false},{"lat":49.1814,"lon":14.3758,"layer":"infrastructure","tone":"gold","size":3.2,"label":"Temelín NPP","source":"OSIRIS infrastructure","url":"","priority":false},{"lat":46.5722,"lon":18.8533,"layer":"infrastructure","tone":"gold","size":3.2,"label":"Paks NPP","source":"OSIRIS infrastructure","url":"","priority":false},{"lat":54.7556,"lon":26.0889,"layer":"infrastructure","tone":"gold","size":3.2,"label":"Belarusian NPP","source":"OSIRIS infrastructure","url":"","priority":false},{"lat":51.6742,"lon":35.6033,"layer":"infrastructure","tone":"gold","size":3.2,"label":"Kursk NPP","source":"OSIRIS infrastructure","url":"","priority":false},{"lat":59.8406,"lon":29.0433,"layer":"infrastructure","tone":"gold","size":3.2,"label":"Leningrad NPP","source":"OSIRIS infrastructure","url":"","priority":false},{"lat":51.2756,"lon":39.2144,"layer":"infrastructure","tone":"gold","size":3.2,"label":"Novovoronezh NPP","source":"OSIRIS infrastructure","url":"","priority":false},{"lat":57.8708,"lon":34.9786,"layer":"infrastructure","tone":"gold","size":3.2,"label":"Kalinin NPP","source":"OSIRIS infrastructure","url":"","priority":false},{"lat":52.0911,"lon":47.9564,"layer":"infrastructure","tone":"gold","size":3.2,"label":"Balakovo NPP","source":"OSIRIS infrastructure","url":"","priority":false},{"lat":47.5286,"lon":42.1014,"layer":"infrastructure","tone":"gold","size":3.2,"label":"Rostov NPP","source":"OSIRIS infrastructure","url":"","priority":false},{"lat":54.1528,"lon":33.2331,"layer":"infrastructure","tone":"gold","size":3.2,"label":"Smolensk NPP","source":"OSIRIS infrastructure","url":"","priority":false},{"lat":67.4642,"lon":32.475,"layer":"infrastructure","tone":"gold","size":3.2,"label":"Kola NPP","source":"OSIRIS infrastructure","url":"","priority":false},{"lat":68.0544,"lon":166.5444,"layer":"infrastructure","tone":"gold","size":3.2,"label":"Bilibino NPP","source":"OSIRIS infrastructure","url":"","priority":false},{"lat":56.8419,"lon":60.725,"layer":"infrastructure","tone":"gold","size":3.2,"label":"Beloyarsk NPP (BN-800)","source":"OSIRIS infrastructure","url":"","priority":false},{"lat":69.7008,"lon":170.3131,"layer":"infrastructure","tone":"gold","size":3.2,"label":"Akademik Lomonosov (Floating)","source":"OSIRIS infrastructure","url":"","priority":false},{"lat":33.3886,"lon":-112.8617,"layer":"infrastructure","tone":"gold","size":3.2,"label":"Palo Verde","source":"OSIRIS infrastructure","url":"","priority":false},{"lat":34.7042,"lon":-87.1186,"layer":"infrastructure","tone":"gold","size":3.2,"label":"Browns Ferry","source":"OSIRIS infrastructure","url":"","priority":false},{"lat":28.795,"lon":-96.0481,"layer":"infrastructure","tone":"gold","size":3.2,"label":"South Texas Project","source":"OSIRIS infrastructure","url":"","priority":false},{"lat":33.1417,"lon":-81.7631,"layer":"infrastructure","tone":"gold","size":3.2,"label":"Vogtle (AP1000)","source":"OSIRIS infrastructure","url":"","priority":false},{"lat":44.3253,"lon":-81.5997,"layer":"infrastructure","tone":"gold","size":3.2,"label":"Bruce Nuclear","source":"OSIRIS infrastructure","url":"","priority":false},{"lat":43.8719,"lon":-78.7183,"layer":"infrastructure","tone":"gold","size":3.2,"label":"Darlington Nuclear","source":"OSIRIS infrastructure","url":"","priority":false},{"lat":43.8103,"lon":-79.0661,"layer":"infrastructure","tone":"gold","size":3.2,"label":"Pickering Nuclear","source":"OSIRIS infrastructure","url":"","priority":false},{"lat":39.7944,"lon":121.48,"layer":"infrastructure","tone":"gold","size":3.2,"label":"Hongyanhe NPP","source":"OSIRIS infrastructure","url":"","priority":false},{"lat":21.7061,"lon":112.2597,"layer":"infrastructure","tone":"gold","size":3.2,"label":"Yangjiang NPP","source":"OSIRIS infrastructure","url":"","priority":false},{"lat":34.6869,"lon":119.4597,"layer":"infrastructure","tone":"gold","size":3.2,"label":"Tianwan NPP","source":"OSIRIS infrastructure","url":"","priority":false},{"lat":25.4375,"lon":119.4444,"layer":"infrastructure","tone":"gold","size":3.2,"label":"Fuqing NPP (Hualong One)","source":"OSIRIS infrastructure","url":"","priority":false},{"lat":21.9167,"lon":112.9833,"layer":"infrastructure","tone":"gold","size":3.2,"label":"Taishan NPP (EPR)","source":"OSIRIS infrastructure","url":"","priority":false},{"lat":22.5975,"lon":114.5436,"layer":"infrastructure","tone":"gold","size":3.2,"label":"Daya Bay NPP","source":"OSIRIS infrastructure","url":"","priority":false},{"lat":37.4286,"lon":138.5958,"layer":"infrastructure","tone":"gold","size":3.2,"label":"Kashiwazaki-Kariwa","source":"OSIRIS infrastructure","url":"","priority":false},{"lat":37.4211,"lon":141.0328,"layer":"infrastructure","tone":"gold","size":3.2,"label":"Fukushima Daiichi","source":"OSIRIS infrastructure","url":"","priority":false},{"lat":35.5217,"lon":135.495,"layer":"infrastructure","tone":"gold","size":3.2,"label":"Takahama NPP","source":"OSIRIS infrastructure","url":"","priority":false},{"lat":35.5439,"lon":135.6581,"layer":"infrastructure","tone":"gold","size":3.2,"label":"Ōi NPP","source":"OSIRIS infrastructure","url":"","priority":false},{"lat":35.3197,"lon":129.2894,"layer":"infrastructure","tone":"gold","size":3.2,"label":"Kori/Shin-Kori NPP","source":"OSIRIS infrastructure","url":"","priority":false},{"lat":37.0933,"lon":129.3831,"layer":"infrastructure","tone":"gold","size":3.2,"label":"Hanul NPP","source":"OSIRIS infrastructure","url":"","priority":false},{"lat":35.7131,"lon":129.4739,"layer":"infrastructure","tone":"gold","size":3.2,"label":"Wolsong NPP","source":"OSIRIS infrastructure","url":"","priority":false},{"lat":8.1706,"lon":77.7114,"layer":"infrastructure","tone":"gold","size":3.2,"label":"Kudankulam NPP","source":"OSIRIS infrastructure","url":"","priority":false},{"lat":19.8306,"lon":72.655,"layer":"infrastructure","tone":"gold","size":3.2,"label":"Tarapur NPP","source":"OSIRIS infrastructure","url":"","priority":false},{"lat":28.8292,"lon":50.8864,"layer":"infrastructure","tone":"gold","size":3.2,"label":"Bushehr NPP","source":"OSIRIS infrastructure","url":"","priority":false},{"lat":23.9686,"lon":52.2356,"layer":"infrastructure","tone":"gold","size":3.2,"label":"Barakah NPP","source":"OSIRIS infrastructure","url":"","priority":false},{"lat":-33.6769,"lon":18.4344,"layer":"infrastructure","tone":"gold","size":3.2,"label":"Koeberg NPP","source":"OSIRIS infrastructure","url":"","priority":false},{"lat":-34.0167,"lon":-59.2083,"layer":"infrastructure","tone":"gold","size":3.2,"label":"Atucha NPP","source":"OSIRIS infrastructure","url":"","priority":false},{"lat":-23.0083,"lon":-44.4583,"layer":"infrastructure","tone":"gold","size":3.2,"label":"Angra NPP","source":"OSIRIS infrastructure","url":"","priority":false}],"routes":[],"panel":[]}