{"schema":1,"layer":"maritime","generatedAt":"2026-06-15T00:06:45.835Z","nodes":[{"lat":31.23,"lon":121.47,"layer":"maritime","tone":"cyan","size":3.6,"label":"Shanghai","source":"OSIRIS maritime ports","url":"","priority":false},{"lat":1.26,"lon":103.84,"layer":"maritime","tone":"cyan","size":3.6,"label":"Singapore","source":"OSIRIS maritime ports","url":"","priority":false},{"lat":29.87,"lon":121.55,"layer":"maritime","tone":"cyan","size":3.6,"label":"Ningbo-Zhoushan","source":"OSIRIS maritime ports","url":"","priority":false},{"lat":22.54,"lon":114.05,"layer":"maritime","tone":"cyan","size":3.6,"label":"Shenzhen","source":"OSIRIS maritime ports","url":"","priority":false},{"lat":23.08,"lon":113.32,"layer":"maritime","tone":"cyan","size":3.6,"label":"Guangzhou","source":"OSIRIS maritime ports","url":"","priority":false},{"lat":35.1,"lon":129.04,"layer":"maritime","tone":"cyan","size":3.6,"label":"Busan","source":"OSIRIS maritime ports","url":"","priority":false},{"lat":36.07,"lon":120.38,"layer":"maritime","tone":"cyan","size":3.6,"label":"Qingdao","source":"OSIRIS maritime ports","url":"","priority":false},{"lat":51.9,"lon":4.5,"layer":"maritime","tone":"cyan","size":3.6,"label":"Rotterdam","source":"OSIRIS maritime ports","url":"","priority":false},{"lat":35.61,"lon":139.79,"layer":"maritime","tone":"cyan","size":3.6,"label":"Tokyo","source":"OSIRIS maritime ports","url":"","priority":false},{"lat":35.45,"lon":139.66,"layer":"maritime","tone":"cyan","size":3.6,"label":"Yokohama","source":"OSIRIS maritime ports","url":"","priority":false},{"lat":34.67,"lon":135.21,"layer":"maritime","tone":"cyan","size":3.6,"label":"Kobe","source":"OSIRIS maritime ports","url":"","priority":false},{"lat":35.08,"lon":136.87,"layer":"maritime","tone":"cyan","size":3.6,"label":"Nagoya","source":"OSIRIS maritime ports","url":"","priority":false},{"lat":34.63,"lon":135.41,"layer":"maritime","tone":"cyan","size":3.6,"label":"Osaka","source":"OSIRIS maritime ports","url":"","priority":false},{"lat":33.6,"lon":130.4,"layer":"maritime","tone":"cyan","size":3.6,"label":"Hakata (Fukuoka)","source":"OSIRIS maritime ports","url":"","priority":false},{"lat":33.91,"lon":130.93,"layer":"maritime","tone":"cyan","size":3.6,"label":"Kitakyushu","source":"OSIRIS maritime ports","url":"","priority":false},{"lat":35,"lon":138.5,"layer":"maritime","tone":"cyan","size":3.6,"label":"Shimizu","source":"OSIRIS maritime ports","url":"","priority":false},{"lat":42.63,"lon":141.63,"layer":"maritime","tone":"cyan","size":3.6,"label":"Tomakomai","source":"OSIRIS maritime ports","url":"","priority":false},{"lat":37.95,"lon":139.06,"layer":"maritime","tone":"cyan","size":3.6,"label":"Niigata","source":"OSIRIS maritime ports","url":"","priority":false},{"lat":38.27,"lon":141.02,"layer":"maritime","tone":"cyan","size":3.6,"label":"Sendai","source":"OSIRIS maritime ports","url":"","priority":false},{"lat":34.5,"lon":133.72,"layer":"maritime","tone":"cyan","size":3.6,"label":"Mizushima","source":"OSIRIS maritime ports","url":"","priority":false},{"lat":34.95,"lon":136.65,"layer":"maritime","tone":"cyan","size":3.6,"label":"Yokkaichi","source":"OSIRIS maritime ports","url":"","priority":false},{"lat":25.01,"lon":55.06,"layer":"maritime","tone":"cyan","size":3.6,"label":"Dubai (Jebel Ali)","source":"OSIRIS maritime ports","url":"","priority":false},{"lat":2.99,"lon":101.39,"layer":"maritime","tone":"cyan","size":3.6,"label":"Port Klang","source":"OSIRIS maritime ports","url":"","priority":false},{"lat":51.3,"lon":4.4,"layer":"maritime","tone":"cyan","size":3.6,"label":"Antwerp","source":"OSIRIS maritime ports","url":"","priority":false},{"lat":24.48,"lon":118.09,"layer":"maritime","tone":"cyan","size":3.6,"label":"Xiamen","source":"OSIRIS maritime ports","url":"","priority":false},{"lat":53.55,"lon":9.97,"layer":"maritime","tone":"cyan","size":3.6,"label":"Hamburg","source":"OSIRIS maritime ports","url":"","priority":false},{"lat":33.74,"lon":-118.27,"layer":"maritime","tone":"cyan","size":3.6,"label":"Los Angeles","source":"OSIRIS maritime ports","url":"","priority":false},{"lat":33.75,"lon":-118.19,"layer":"maritime","tone":"cyan","size":3.6,"label":"Long Beach","source":"OSIRIS maritime ports","url":"","priority":false},{"lat":1.36,"lon":103.55,"layer":"maritime","tone":"cyan","size":3.6,"label":"Tanjung Pelepas","source":"OSIRIS maritime ports","url":"","priority":false},{"lat":32.08,"lon":-81.09,"layer":"maritime","tone":"cyan","size":3.6,"label":"Savannah","source":"OSIRIS maritime ports","url":"","priority":false},{"lat":51.96,"lon":1.35,"layer":"maritime","tone":"cyan","size":3.6,"label":"Felixstowe","source":"OSIRIS maritime ports","url":"","priority":false},{"lat":-23.95,"lon":-46.31,"layer":"maritime","tone":"cyan","size":3.6,"label":"Santos","source":"OSIRIS maritime ports","url":"","priority":false},{"lat":6.94,"lon":79.84,"layer":"maritime","tone":"cyan","size":3.6,"label":"Colombo","source":"OSIRIS maritime ports","url":"","priority":false},{"lat":26.64,"lon":50.16,"layer":"maritime","tone":"cyan","size":3.6,"label":"Ras Tanura","source":"OSIRIS maritime ports","url":"","priority":false},{"lat":25.14,"lon":56.35,"layer":"maritime","tone":"cyan","size":3.6,"label":"Fujairah","source":"OSIRIS maritime ports","url":"","priority":false},{"lat":44.72,"lon":37.77,"layer":"maritime","tone":"cyan","size":3.6,"label":"Novorossiysk","source":"OSIRIS maritime ports","url":"","priority":false},{"lat":29.73,"lon":-95.27,"layer":"maritime","tone":"cyan","size":3.6,"label":"Houston Ship Channel","source":"OSIRIS maritime ports","url":"","priority":false},{"lat":29.24,"lon":50.33,"layer":"maritime","tone":"cyan","size":3.6,"label":"Kharg Island","source":"OSIRIS maritime ports","url":"","priority":false},{"lat":60.35,"lon":28.7,"layer":"maritime","tone":"cyan","size":3.6,"label":"Primorsk","source":"OSIRIS maritime ports","url":"","priority":false},{"lat":36.95,"lon":-76.33,"layer":"maritime","tone":"red","size":3.6,"label":"Norfolk Naval Station","source":"OSIRIS maritime ports","url":"","priority":false},{"lat":32.69,"lon":-117.15,"layer":"maritime","tone":"red","size":3.6,"label":"San Diego Naval Base","source":"OSIRIS maritime ports","url":"","priority":false},{"lat":21.35,"lon":-157.97,"layer":"maritime","tone":"red","size":3.6,"label":"Pearl Harbor","source":"OSIRIS maritime ports","url":"","priority":false},{"lat":35.28,"lon":139.67,"layer":"maritime","tone":"red","size":3.6,"label":"Yokosuka","source":"OSIRIS maritime ports","url":"","priority":false},{"lat":69.07,"lon":33.42,"layer":"maritime","tone":"red","size":3.6,"label":"Severomorsk","source":"OSIRIS maritime ports","url":"","priority":false},{"lat":34.89,"lon":35.89,"layer":"maritime","tone":"red","size":3.6,"label":"Tartus","source":"OSIRIS maritime ports","url":"","priority":false},{"lat":21.2,"lon":110.39,"layer":"maritime","tone":"red","size":3.6,"label":"Zhanjiang","source":"OSIRIS maritime ports","url":"","priority":false},{"lat":36.09,"lon":120.43,"layer":"maritime","tone":"red","size":3.6,"label":"Qingdao Naval","source":"OSIRIS maritime ports","url":"","priority":false},{"lat":50.8,"lon":-1.11,"layer":"maritime","tone":"red","size":3.6,"label":"Portsmouth","source":"OSIRIS maritime ports","url":"","priority":false},{"lat":43.12,"lon":5.93,"layer":"maritime","tone":"red","size":3.6,"label":"Toulon","source":"OSIRIS maritime ports","url":"","priority":false},{"lat":1.33,"lon":104.01,"layer":"maritime","tone":"red","size":3.6,"label":"Changi Naval Base","source":"OSIRIS maritime ports","url":"","priority":false},{"lat":17.69,"lon":83.3,"layer":"maritime","tone":"red","size":3.6,"label":"Visakhapatnam","source":"OSIRIS maritime ports","url":"","priority":false},{"lat":18.93,"lon":72.84,"layer":"maritime","tone":"red","size":3.6,"label":"Mumbai Naval","source":"OSIRIS maritime ports","url":"","priority":false},{"lat":26.57,"lon":56.25,"layer":"maritime","tone":"gold","size":4.2,"label":"Strait of Hormuz","source":"OSIRIS maritime chokepoints","url":"","priority":true},{"lat":2.5,"lon":101.5,"layer":"maritime","tone":"gold","size":4.2,"label":"Strait of Malacca","source":"OSIRIS maritime chokepoints","url":"","priority":true},{"lat":30.43,"lon":32.34,"layer":"maritime","tone":"gold","size":4.2,"label":"Suez Canal","source":"OSIRIS maritime chokepoints","url":"","priority":true},{"lat":12.58,"lon":43.33,"layer":"maritime","tone":"gold","size":4.2,"label":"Bab el-Mandeb","source":"OSIRIS maritime chokepoints","url":"","priority":true},{"lat":9.08,"lon":-79.68,"layer":"maritime","tone":"gold","size":4.2,"label":"Panama Canal","source":"OSIRIS maritime chokepoints","url":"","priority":true},{"lat":41.12,"lon":29.07,"layer":"maritime","tone":"gold","size":4.2,"label":"Turkish Straits","source":"OSIRIS maritime chokepoints","url":"","priority":true},{"lat":55.7,"lon":12.6,"layer":"maritime","tone":"gold","size":4.2,"label":"Danish Straits","source":"OSIRIS maritime chokepoints","url":"","priority":true},{"lat":-34.36,"lon":18.47,"layer":"maritime","tone":"gold","size":4.2,"label":"Cape of Good Hope","source":"OSIRIS maritime chokepoints","url":"","priority":true},{"lat":24,"lon":119,"layer":"maritime","tone":"gold","size":4.2,"label":"Taiwan Strait","source":"OSIRIS maritime chokepoints","url":"","priority":true},{"lat":-8.47,"lon":115.72,"layer":"maritime","tone":"gold","size":4.2,"label":"Lombok Strait","source":"OSIRIS maritime chokepoints","url":"","priority":true}],"routes":[],"panel":[]}