{"schema":1,"layer":"satellites","generatedAt":"2026-06-14T20:03:16.047Z","nodes":[{"lat":-15.9523,"lon":96.5274,"layer":"satellites","tone":"gold","size":2.8,"label":"ISS (ZARYA)","source":"OSIRIS satellites","url":"","priority":false},{"lat":-34.2713,"lon":28.6304,"layer":"satellites","tone":"gold","size":2.8,"label":"NEMO-HD","source":"OSIRIS satellites","url":"","priority":false},{"lat":-23.063,"lon":-127.4484,"layer":"satellites","tone":"gold","size":2.8,"label":"OBJECT G","source":"OSIRIS satellites","url":"","priority":false},{"lat":-35.5447,"lon":-44.6289,"layer":"satellites","tone":"gold","size":2.8,"label":"METEOR M2-2","source":"OSIRIS satellites","url":"","priority":false},{"lat":52.4179,"lon":-107.9116,"layer":"satellites","tone":"gold","size":2.8,"label":"D-STAR ONE SPARROW","source":"OSIRIS satellites","url":"","priority":false},{"lat":-49.6455,"lon":-177.5558,"layer":"satellites","tone":"gold","size":2.8,"label":"EAGLET 1","source":"OSIRIS satellites","url":"","priority":false},{"lat":-50.9686,"lon":174.6412,"layer":"satellites","tone":"gold","size":2.8,"label":"RANGE A","source":"OSIRIS satellites","url":"","priority":false},{"lat":-82.4078,"lon":99.9067,"layer":"satellites","tone":"gold","size":2.8,"label":"AO-95","source":"OSIRIS satellites","url":"","priority":false},{"lat":0.0155,"lon":-109.4977,"layer":"satellites","tone":"gold","size":2.8,"label":"ES'HAIL 2","source":"OSIRIS satellites","url":"","priority":false},{"lat":-12.6746,"lon":-23.9893,"layer":"satellites","tone":"gold","size":2.8,"label":"DIWATA 2B","source":"OSIRIS satellites","url":"","priority":false},{"lat":-20.2856,"lon":-29.1127,"layer":"satellites","tone":"gold","size":2.8,"label":"TEN-KOH","source":"OSIRIS satellites","url":"","priority":false},{"lat":-67.9318,"lon":-177.5461,"layer":"satellites","tone":"gold","size":2.8,"label":"CARTOSAT 2F","source":"OSIRIS satellites","url":"","priority":false},{"lat":23.8614,"lon":33.6158,"layer":"satellites","tone":"gold","size":2.8,"label":"CZ-11 R/B","source":"OSIRIS satellites","url":"","priority":false},{"lat":78.2924,"lon":-173.4439,"layer":"satellites","tone":"gold","size":2.8,"label":"ALSAT 1N","source":"OSIRIS satellites","url":"","priority":false},{"lat":-68.4171,"lon":-177.5489,"layer":"satellites","tone":"gold","size":2.8,"label":"CARTOSAT 2C","source":"OSIRIS satellites","url":"","priority":false},{"lat":-13.9388,"lon":0.3508,"layer":"satellites","tone":"gold","size":2.8,"label":"LILACSAT 2","source":"OSIRIS satellites","url":"","priority":false},{"lat":-4.8058,"lon":45.8596,"layer":"satellites","tone":"gold","size":2.8,"label":"VELOX 1","source":"OSIRIS satellites","url":"","priority":false},{"lat":44.1249,"lon":25.0647,"layer":"satellites","tone":"gold","size":2.8,"label":"CANX-4","source":"OSIRIS satellites","url":"","priority":false},{"lat":-37.3203,"lon":47.5,"layer":"satellites","tone":"gold","size":2.8,"label":"AISAT","source":"OSIRIS satellites","url":"","priority":false},{"lat":31.791,"lon":-63.5953,"layer":"satellites","tone":"gold","size":2.8,"label":"TIGRISAT","source":"OSIRIS satellites","url":"","priority":false},{"lat":-72.234,"lon":20.136,"layer":"satellites","tone":"gold","size":2.8,"label":"NANOSAT C BR1","source":"OSIRIS satellites","url":"","priority":false},{"lat":22.6914,"lon":-62.4685,"layer":"satellites","tone":"gold","size":2.8,"label":"UNISAT 6","source":"OSIRIS satellites","url":"","priority":false},{"lat":0.728,"lon":-110.6192,"layer":"satellites","tone":"gold","size":2.8,"label":"AIST 1","source":"OSIRIS satellites","url":"","priority":false},{"lat":-35.6572,"lon":104.5937,"layer":"satellites","tone":"gold","size":2.8,"label":"HINCUBE","source":"OSIRIS satellites","url":"","priority":false},{"lat":-39.3033,"lon":106.5148,"layer":"satellites","tone":"gold","size":2.8,"label":"FUNCUBE 1","source":"OSIRIS satellites","url":"","priority":false},{"lat":-13.9704,"lon":101.9571,"layer":"satellites","tone":"gold","size":2.8,"label":"ZACUBE","source":"OSIRIS satellites","url":"","priority":false},{"lat":43.8638,"lon":-157.0075,"layer":"satellites","tone":"gold","size":2.8,"label":"ESTCUBE 1","source":"OSIRIS satellites","url":"","priority":false},{"lat":-3.3578,"lon":-59.1204,"layer":"satellites","tone":"gold","size":2.8,"label":"CUBEBUG 1","source":"OSIRIS satellites","url":"","priority":false},{"lat":0.5697,"lon":141.0254,"layer":"satellites","tone":"gold","size":2.8,"label":"BRITE-A TUGSAT-1","source":"OSIRIS satellites","url":"","priority":false},{"lat":10.6525,"lon":143.8559,"layer":"satellites","tone":"gold","size":2.8,"label":"AAUSAT3","source":"OSIRIS satellites","url":"","priority":false},{"lat":37.2546,"lon":0.8544,"layer":"satellites","tone":"gold","size":2.8,"label":"FENGYUN 3B","source":"OSIRIS satellites","url":"","priority":false},{"lat":-71.6339,"lon":-66.7126,"layer":"satellites","tone":"gold","size":2.8,"label":"TISAT 1","source":"OSIRIS satellites","url":"","priority":false},{"lat":-67.1103,"lon":54.468,"layer":"satellites","tone":"gold","size":2.8,"label":"NOAA 19","source":"OSIRIS satellites","url":"","priority":false},{"lat":-49.592,"lon":-87.2199,"layer":"satellites","tone":"gold","size":2.8,"label":"FENGYUN 3A","source":"OSIRIS satellites","url":"","priority":false},{"lat":40.6891,"lon":-33.3321,"layer":"satellites","tone":"gold","size":2.8,"label":"YUBELEINY","source":"OSIRIS satellites","url":"","priority":false},{"lat":50.2081,"lon":-160.0558,"layer":"satellites","tone":"gold","size":2.8,"label":"CARTOSAT 2A","source":"OSIRIS satellites","url":"","priority":false},{"lat":-20.1013,"lon":-37.0387,"layer":"satellites","tone":"gold","size":2.8,"label":"MOZHAYETS 4","source":"OSIRIS satellites","url":"","priority":false},{"lat":61.0821,"lon":-28.6288,"layer":"satellites","tone":"gold","size":2.8,"label":"NOAA 9","source":"OSIRIS satellites","url":"","priority":false},{"lat":16.1761,"lon":109.4688,"layer":"satellites","tone":"gold","size":2.8,"label":"OSCAR 11 (UOSAT 2)","source":"OSIRIS satellites","url":"","priority":false},{"lat":-2.146,"lon":154.1347,"layer":"satellites","tone":"gold","size":2.8,"label":"OSCAR 7","source":"OSIRIS satellites","url":"","priority":false},{"lat":6.8429,"lon":94.3752,"layer":"satellites","tone":"gold","size":2.8,"label":"PROX-1","source":"OSIRIS satellites","url":"","priority":false},{"lat":-41.3611,"lon":-19.5098,"layer":"satellites","tone":"gold","size":2.8,"label":"AUTCUBE 2","source":"OSIRIS satellites","url":"","priority":false},{"lat":-13.4165,"lon":-118.3109,"layer":"satellites","tone":"gold","size":2.8,"label":"CZ-4B R/B","source":"OSIRIS satellites","url":"","priority":false},{"lat":-30.8344,"lon":-60.5387,"layer":"satellites","tone":"gold","size":2.8,"label":"CORVUS BC1","source":"OSIRIS satellites","url":"","priority":false},{"lat":-75.3602,"lon":-74.7642,"layer":"satellites","tone":"gold","size":2.8,"label":"NORSAT 2","source":"OSIRIS satellites","url":"","priority":false},{"lat":-68.0208,"lon":-177.2799,"layer":"satellites","tone":"gold","size":2.8,"label":"CARTOSAT 2E","source":"OSIRIS satellites","url":"","priority":false},{"lat":-28.3335,"lon":30.5296,"layer":"satellites","tone":"gold","size":2.8,"label":"CHUBUSAT 3","source":"OSIRIS satellites","url":"","priority":false},{"lat":-51.8819,"lon":-164.2784,"layer":"satellites","tone":"gold","size":2.8,"label":"SINOD-D 1","source":"OSIRIS satellites","url":"","priority":false},{"lat":11.8337,"lon":-102.3248,"layer":"satellites","tone":"gold","size":2.8,"label":"FOX-1","source":"OSIRIS satellites","url":"","priority":false},{"lat":57.7913,"lon":147.5867,"layer":"satellites","tone":"gold","size":2.8,"label":"LQSAT","source":"OSIRIS satellites","url":"","priority":false},{"lat":-51.3546,"lon":134.032,"layer":"satellites","tone":"gold","size":2.8,"label":"UKUBE 1","source":"OSIRIS satellites","url":"","priority":false},{"lat":-67.2611,"lon":7.5363,"layer":"satellites","tone":"gold","size":2.8,"label":"POLYITAN 1","source":"OSIRIS satellites","url":"","priority":false},{"lat":-64.9543,"lon":134.9348,"layer":"satellites","tone":"gold","size":2.8,"label":"QB50P1","source":"OSIRIS satellites","url":"","priority":false},{"lat":-57.5464,"lon":-138.7342,"layer":"satellites","tone":"gold","size":2.8,"label":"BUGSAT 1","source":"OSIRIS satellites","url":"","priority":false},{"lat":12.5316,"lon":134.6673,"layer":"satellites","tone":"gold","size":2.8,"label":"SMDC ONE 2.4","source":"OSIRIS satellites","url":"","priority":false},{"lat":-1.8491,"lon":97.323,"layer":"satellites","tone":"gold","size":2.8,"label":"UWE-3","source":"OSIRIS satellites","url":"","priority":false},{"lat":-60.8547,"lon":-48.7088,"layer":"satellites","tone":"gold","size":2.8,"label":"FENGYUN 3C","source":"OSIRIS satellites","url":"","priority":false},{"lat":2.415,"lon":141.5399,"layer":"satellites","tone":"gold","size":2.8,"label":"STRAND 1","source":"OSIRIS satellites","url":"","priority":false},{"lat":15.3474,"lon":-83.4392,"layer":"satellites","tone":"gold","size":2.8,"label":"HORYU 2","source":"OSIRIS satellites","url":"","priority":false},{"lat":6.7893,"lon":60.2815,"layer":"satellites","tone":"gold","size":2.8,"label":"O/OREOS (USA 219)","source":"OSIRIS satellites","url":"","priority":false},{"lat":52.1596,"lon":-157.335,"layer":"satellites","tone":"gold","size":2.8,"label":"CARTOSAT 2B","source":"OSIRIS satellites","url":"","priority":false},{"lat":-0.6316,"lon":-84.3114,"layer":"satellites","tone":"gold","size":2.8,"label":"XIWANG-1 (HOPE-1)","source":"OSIRIS satellites","url":"","priority":false},{"lat":70.5279,"lon":-156.691,"layer":"satellites","tone":"gold","size":2.8,"label":"ITUPSAT 1","source":"OSIRIS satellites","url":"","priority":false},{"lat":73.9205,"lon":-161.627,"layer":"satellites","tone":"gold","size":2.8,"label":"BEESAT","source":"OSIRIS satellites","url":"","priority":false},{"lat":75.7872,"lon":-166.505,"layer":"satellites","tone":"gold","size":2.8,"label":"SWISSCUBE","source":"OSIRIS satellites","url":"","priority":false},{"lat":38.9494,"lon":70.6272,"layer":"satellites","tone":"gold","size":2.8,"label":"KKS-1 (KISEKI)","source":"OSIRIS satellites","url":"","priority":false},{"lat":-16.0604,"lon":31.4639,"layer":"satellites","tone":"gold","size":2.8,"label":"EYESAT A","source":"OSIRIS satellites","url":"","priority":false},{"lat":-30.0498,"lon":-105.9047,"layer":"satellites","tone":"gold","size":2.8,"label":"UWE-4","source":"OSIRIS satellites","url":"","priority":false},{"lat":-80.0852,"lon":69.8099,"layer":"satellites","tone":"gold","size":2.8,"label":"SUOMI100","source":"OSIRIS satellites","url":"","priority":false},{"lat":-19.9272,"lon":42.3926,"layer":"satellites","tone":"gold","size":2.8,"label":"ASTROCAST-01","source":"OSIRIS satellites","url":"","priority":false},{"lat":-67.379,"lon":174.9647,"layer":"satellites","tone":"gold","size":2.8,"label":"ITASAT","source":"OSIRIS satellites","url":"","priority":false},{"lat":-82.0365,"lon":83.5056,"layer":"satellites","tone":"gold","size":2.8,"label":"SNUGLITE","source":"OSIRIS satellites","url":"","priority":false},{"lat":-74.9284,"lon":165.7954,"layer":"satellites","tone":"gold","size":2.8,"label":"SNUSAT-2","source":"OSIRIS satellites","url":"","priority":false},{"lat":74.6819,"lon":-109.0486,"layer":"satellites","tone":"gold","size":2.8,"label":"OBJECT Q","source":"OSIRIS satellites","url":"","priority":false},{"lat":-60.6363,"lon":32.8148,"layer":"satellites","tone":"gold","size":2.8,"label":"S-NET D","source":"OSIRIS satellites","url":"","priority":false},{"lat":-60.485,"lon":32.916,"layer":"satellites","tone":"gold","size":2.8,"label":"S-NET C","source":"OSIRIS satellites","url":"","priority":false},{"lat":-60.5338,"lon":32.6726,"layer":"satellites","tone":"gold","size":2.8,"label":"S-NET B","source":"OSIRIS satellites","url":"","priority":false},{"lat":-60.6433,"lon":32.7389,"layer":"satellites","tone":"gold","size":2.8,"label":"S-NET A","source":"OSIRIS satellites","url":"","priority":false},{"lat":-46.8156,"lon":0.9145,"layer":"satellites","tone":"gold","size":2.8,"label":"AO-91","source":"OSIRIS satellites","url":"","priority":false},{"lat":65.1188,"lon":50.6179,"layer":"satellites","tone":"gold","size":2.8,"label":"CZ-4C R/B","source":"OSIRIS satellites","url":"","priority":false},{"lat":-26.4789,"lon":-64.4533,"layer":"satellites","tone":"gold","size":2.8,"label":"TECHNOSAT","source":"OSIRIS satellites","url":"","priority":false},{"lat":-62.6844,"lon":105.617,"layer":"satellites","tone":"gold","size":2.8,"label":"DSAT","source":"OSIRIS satellites","url":"","priority":false},{"lat":-56.1642,"lon":126.1364,"layer":"satellites","tone":"gold","size":2.8,"label":"QB50P2","source":"OSIRIS satellites","url":"","priority":false},{"lat":-55.6038,"lon":127.1567,"layer":"satellites","tone":"gold","size":2.8,"label":"DTUSAT 2","source":"OSIRIS satellites","url":"","priority":false},{"lat":23.7825,"lon":16.4193,"layer":"satellites","tone":"gold","size":2.8,"label":"DUCHIFAT 1","source":"OSIRIS satellites","url":"","priority":false},{"lat":6.4518,"lon":91.5651,"layer":"satellites","tone":"gold","size":2.8,"label":"CUBEBUG 2","source":"OSIRIS satellites","url":"","priority":false},{"lat":76.2582,"lon":15.6479,"layer":"satellites","tone":"gold","size":2.8,"label":"GOMX 1","source":"OSIRIS satellites","url":"","priority":false},{"lat":19.6531,"lon":-27.3961,"layer":"satellites","tone":"gold","size":2.8,"label":"SRMSAT","source":"OSIRIS satellites","url":"","priority":false},{"lat":19.9232,"lon":-143.2201,"layer":"satellites","tone":"gold","size":2.8,"label":"JUGNU","source":"OSIRIS satellites","url":"","priority":false},{"lat":-39.4568,"lon":116.5807,"layer":"satellites","tone":"gold","size":2.8,"label":"CUTE-1.7+APD 2","source":"OSIRIS satellites","url":"","priority":false},{"lat":69.4439,"lon":-40.02,"layer":"satellites","tone":"gold","size":2.8,"label":"CUBESAT XI 5","source":"OSIRIS satellites","url":"","priority":false},{"lat":-66.2411,"lon":62.0228,"layer":"satellites","tone":"gold","size":2.8,"label":"NOAA 18","source":"OSIRIS satellites","url":"","priority":false},{"lat":-37.7251,"lon":-23.5102,"layer":"satellites","tone":"gold","size":2.8,"label":"CUBESAT XI 4","source":"OSIRIS satellites","url":"","priority":false},{"lat":-35.6003,"lon":-23.5137,"layer":"satellites","tone":"gold","size":2.8,"label":"CUTE-1","source":"OSIRIS satellites","url":"","priority":false},{"lat":-12.1611,"lon":41.9079,"layer":"satellites","tone":"gold","size":2.8,"label":"PCSAT","source":"OSIRIS satellites","url":"","priority":false},{"lat":-35.3402,"lon":-39.2041,"layer":"satellites","tone":"gold","size":2.8,"label":"TECHSAT 1B","source":"OSIRIS satellites","url":"","priority":false},{"lat":-27.4034,"lon":-13.1431,"layer":"satellites","tone":"gold","size":2.8,"label":"NOAA 15","source":"OSIRIS satellites","url":"","priority":false},{"lat":63.7928,"lon":8.649,"layer":"satellites","tone":"gold","size":2.8,"label":"JAS 2","source":"OSIRIS satellites","url":"","priority":false},{"lat":-14.8006,"lon":31.2224,"layer":"satellites","tone":"gold","size":2.8,"label":"ITAMSAT","source":"OSIRIS satellites","url":"","priority":false},{"lat":-6.6051,"lon":-15.5843,"layer":"satellites","tone":"gold","size":2.8,"label":"OSCAR 19 (LUSAT)","source":"OSIRIS satellites","url":"","priority":false},{"lat":28.5149,"lon":-141.7264,"layer":"satellites","tone":"gold","size":2.8,"label":"OBJECT C","source":"OSIRIS satellites","url":"","priority":false},{"lat":-57.0111,"lon":178.0035,"layer":"satellites","tone":"gold","size":2.8,"label":"AISTECHSAT-2","source":"OSIRIS satellites","url":"","priority":false},{"lat":-27.8448,"lon":41.3226,"layer":"satellites","tone":"gold","size":2.8,"label":"MINXSS-2","source":"OSIRIS satellites","url":"","priority":false},{"lat":-43.9722,"lon":29.7555,"layer":"satellites","tone":"gold","size":2.8,"label":"METOP-C","source":"OSIRIS satellites","url":"","priority":false},{"lat":-61.6223,"lon":-19.6856,"layer":"satellites","tone":"gold","size":2.8,"label":"STARS-AO","source":"OSIRIS satellites","url":"","priority":false},{"lat":-15.081,"lon":-64.6899,"layer":"satellites","tone":"gold","size":2.8,"label":"FLYING LAPTOP","source":"OSIRIS satellites","url":"","priority":false},{"lat":-68.2599,"lon":-177.9793,"layer":"satellites","tone":"gold","size":2.8,"label":"CARTOSAT 2D","source":"OSIRIS satellites","url":"","priority":false},{"lat":81.8493,"lon":-147.5618,"layer":"satellites","tone":"gold","size":2.8,"label":"PRATHAM","source":"OSIRIS satellites","url":"","priority":false},{"lat":44.0735,"lon":25.092,"layer":"satellites","tone":"gold","size":2.8,"label":"CANX-5","source":"OSIRIS satellites","url":"","priority":false},{"lat":27.0581,"lon":84.9916,"layer":"satellites","tone":"gold","size":2.8,"label":"NEE 02 KRYSAOR","source":"OSIRIS satellites","url":"","priority":false},{"lat":9.2573,"lon":94.1892,"layer":"satellites","tone":"gold","size":2.8,"label":"VELOX-P 2","source":"OSIRIS satellites","url":"","priority":false},{"lat":-82.3346,"lon":46.4369,"layer":"satellites","tone":"gold","size":2.8,"label":"ICUBE 1","source":"OSIRIS satellites","url":"","priority":false},{"lat":46.3144,"lon":65.9695,"layer":"satellites","tone":"gold","size":2.8,"label":"BRITE-PL","source":"OSIRIS satellites","url":"","priority":false},{"lat":4.417,"lon":62.4057,"layer":"satellites","tone":"gold","size":2.8,"label":"DELFI-N3XT","source":"OSIRIS satellites","url":"","priority":false},{"lat":46.6514,"lon":-135.2961,"layer":"satellites","tone":"gold","size":2.8,"label":"CINEMA 3","source":"OSIRIS satellites","url":"","priority":false},{"lat":-80.8154,"lon":127.5841,"layer":"satellites","tone":"gold","size":2.8,"label":"CASSIOPE","source":"OSIRIS satellites","url":"","priority":false},{"lat":7.5537,"lon":-73.4268,"layer":"satellites","tone":"gold","size":2.8,"label":"NEE 01 PEGASUS","source":"OSIRIS satellites","url":"","priority":false},{"lat":0.187,"lon":141.2039,"layer":"satellites","tone":"gold","size":2.8,"label":"BRITE-U UNIBRITE","source":"OSIRIS satellites","url":"","priority":false},{"lat":-10.3923,"lon":149.8932,"layer":"satellites","tone":"gold","size":2.8,"label":"SARAL","source":"OSIRIS satellites","url":"","priority":false},{"lat":-44.2342,"lon":21.7698,"layer":"satellites","tone":"gold","size":2.8,"label":"METOP-B","source":"OSIRIS satellites","url":"","priority":false},{"lat":-39.1436,"lon":-68.5907,"layer":"satellites","tone":"gold","size":2.8,"label":"METEOR-M","source":"OSIRIS satellites","url":"","priority":false},{"lat":1.3265,"lon":89.0493,"layer":"satellites","tone":"gold","size":2.8,"label":"STARS (KUKAI)","source":"OSIRIS satellites","url":"","priority":false},{"lat":-40.3708,"lon":157.7569,"layer":"satellites","tone":"gold","size":2.8,"label":"HAMSAT","source":"OSIRIS satellites","url":"","priority":false},{"lat":0.2402,"lon":16.2111,"layer":"satellites","tone":"gold","size":2.8,"label":"INMARSAT 4-F1","source":"OSIRIS satellites","url":"","priority":false},{"lat":4.8032,"lon":-103.0486,"layer":"satellites","tone":"gold","size":2.8,"label":"OPAL","source":"OSIRIS satellites","url":"","priority":false},{"lat":44.9576,"lon":-136.9392,"layer":"satellites","tone":"gold","size":2.8,"label":"ORSTED","source":"OSIRIS satellites","url":"","priority":false},{"lat":24.7588,"lon":-88.9174,"layer":"satellites","tone":"gold","size":2.8,"label":"RADIO ROSTO","source":"OSIRIS satellites","url":"","priority":false},{"lat":-59.7353,"lon":179.004,"layer":"satellites","tone":"gold","size":2.8,"label":"OPS 6582 (TRANSIT 5B-5)","source":"OSIRIS satellites","url":"","priority":false},{"lat":-25.3903,"lon":-30.8978,"layer":"satellites","tone":"gold","size":2.8,"label":"M2 PATHFINDER","source":"OSIRIS satellites","url":"","priority":false},{"lat":70.592,"lon":-28.0039,"layer":"satellites","tone":"gold","size":2.8,"label":"TAURUS-1","source":"OSIRIS satellites","url":"","priority":false},{"lat":4.7904,"lon":84.3814,"layer":"satellites","tone":"gold","size":2.8,"label":"FORMOSAT7-4/COSMIC2-4","source":"OSIRIS satellites","url":"","priority":false},{"lat":26.1778,"lon":-107.2868,"layer":"satellites","tone":"gold","size":2.8,"label":"ISAT","source":"OSIRIS satellites","url":"","priority":false},{"lat":-59.5531,"lon":-179.7998,"layer":"satellites","tone":"gold","size":2.8,"label":"CENTAURI-1","source":"OSIRIS satellites","url":"","priority":false},{"lat":-66.5036,"lon":41.5136,"layer":"satellites","tone":"gold","size":2.8,"label":"JY1SAT","source":"OSIRIS satellites","url":"","priority":false},{"lat":-23.8668,"lon":175.9077,"layer":"satellites","tone":"gold","size":2.8,"label":"ESEO","source":"OSIRIS satellites","url":"","priority":false},{"lat":26.412,"lon":-136.1317,"layer":"satellites","tone":"gold","size":2.8,"label":"LUOJIA-1 01","source":"OSIRIS satellites","url":"","priority":false},{"lat":-67.96,"lon":-23.9631,"layer":"satellites","tone":"gold","size":2.8,"label":"LAPAN A3","source":"OSIRIS satellites","url":"","priority":false},{"lat":28.1802,"lon":11.729,"layer":"satellites","tone":"gold","size":2.8,"label":"HORYU 4","source":"OSIRIS satellites","url":"","priority":false},{"lat":-29.6936,"lon":28.8071,"layer":"satellites","tone":"gold","size":2.8,"label":"CHUBUSAT 2","source":"OSIRIS satellites","url":"","priority":false},{"lat":18.6153,"lon":106.1145,"layer":"satellites","tone":"gold","size":2.8,"label":"DX 1","source":"OSIRIS satellites","url":"","priority":false},{"lat":-44.1726,"lon":-54.0848,"layer":"satellites","tone":"gold","size":2.8,"label":"METEOR M2","source":"OSIRIS satellites","url":"","priority":false},{"lat":44.9288,"lon":59.4556,"layer":"satellites","tone":"gold","size":2.8,"label":"TRITON 1","source":"OSIRIS satellites","url":"","priority":false},{"lat":80.9874,"lon":-133.447,"layer":"satellites","tone":"gold","size":2.8,"label":"CAPE 1","source":"OSIRIS satellites","url":"","priority":false},{"lat":-52.1475,"lon":-122.5009,"layer":"satellites","tone":"gold","size":2.8,"label":"METOP-A","source":"OSIRIS satellites","url":"","priority":false},{"lat":36.458,"lon":93.3771,"layer":"satellites","tone":"gold","size":2.8,"label":"SAUDISAT 1C","source":"OSIRIS satellites","url":"","priority":false},{"lat":-71.2151,"lon":-19.7469,"layer":"satellites","tone":"gold","size":2.8,"label":"BREEZE-KM R/B","source":"OSIRIS satellites","url":"","priority":false},{"lat":5.4595,"lon":-166.0167,"layer":"satellites","tone":"gold","size":2.8,"label":"LAPAN-A2","source":"OSIRIS satellites","url":"","priority":false},{"lat":-68.9018,"lon":-19.9336,"layer":"satellites","tone":"gold","size":2.8,"label":"SEEDS","source":"OSIRIS satellites","url":"","priority":false},{"lat":-30.3401,"lon":-61.3846,"layer":"satellites","tone":"gold","size":2.8,"label":"CORVUS BC2","source":"OSIRIS satellites","url":"","priority":false},{"lat":-22.5094,"lon":-4.6087,"layer":"satellites","tone":"gold","size":2.8,"label":"DEORBITSAIL","source":"OSIRIS satellites","url":"","priority":false},{"lat":-20.5476,"lon":-34.3642,"layer":"satellites","tone":"gold","size":2.8,"label":"OSCAR 10","source":"OSIRIS satellites","url":"","priority":false},{"lat":-54.4006,"lon":-179.1567,"layer":"satellites","tone":"gold","size":2.8,"label":"OBJECT BS","source":"OSIRIS satellites","url":"","priority":false},{"lat":-64.377,"lon":40.6219,"layer":"satellites","tone":"gold","size":2.8,"label":"OBJECT P","source":"OSIRIS satellites","url":"","priority":false},{"lat":-30.8148,"lon":178.1492,"layer":"satellites","tone":"gold","size":2.8,"label":"OBJECT D","source":"OSIRIS satellites","url":"","priority":false},{"lat":-41.3708,"lon":178.9845,"layer":"satellites","tone":"gold","size":2.8,"label":"OBJECT T","source":"OSIRIS satellites","url":"","priority":false},{"lat":-76.6247,"lon":0.1667,"layer":"satellites","tone":"gold","size":2.8,"label":"SALSAT","source":"OSIRIS satellites","url":"","priority":false},{"lat":-63.4434,"lon":-21.6853,"layer":"satellites","tone":"gold","size":2.8,"label":"NETSAT-1","source":"OSIRIS satellites","url":"","priority":false},{"lat":-30.2164,"lon":-25.7808,"layer":"satellites","tone":"gold","size":2.8,"label":"NETSAT-2","source":"OSIRIS satellites","url":"","priority":false},{"lat":-40.0251,"lon":-25.439,"layer":"satellites","tone":"gold","size":2.8,"label":"NETSAT-3","source":"OSIRIS satellites","url":"","priority":false},{"lat":-36.4999,"lon":-24.4622,"layer":"satellites","tone":"gold","size":2.8,"label":"NETSAT-4","source":"OSIRIS satellites","url":"","priority":false},{"lat":-55.6437,"lon":-17.5255,"layer":"satellites","tone":"gold","size":2.8,"label":"DEKART","source":"OSIRIS satellites","url":"","priority":false},{"lat":-22.8935,"lon":-19.2355,"layer":"satellites","tone":"gold","size":2.8,"label":"NORBI","source":"OSIRIS satellites","url":"","priority":false},{"lat":13.6193,"lon":-74.2506,"layer":"satellites","tone":"gold","size":2.8,"label":"ATLAS 5 CENTAUR DEB","source":"OSIRIS satellites","url":"","priority":false},{"lat":32.1158,"lon":-59.8115,"layer":"satellites","tone":"gold","size":2.8,"label":"LES 1","source":"OSIRIS satellites","url":"","priority":false},{"lat":-51.1534,"lon":-115.2285,"layer":"satellites","tone":"gold","size":2.8,"label":"SOLRAD 7B","source":"OSIRIS satellites","url":"","priority":false},{"lat":72.4759,"lon":109.7406,"layer":"satellites","tone":"gold","size":2.8,"label":"ALOUETTE 2","source":"OSIRIS satellites","url":"","priority":false},{"lat":75.2365,"lon":164.8465,"layer":"satellites","tone":"gold","size":2.8,"label":"OV3-3","source":"OSIRIS satellites","url":"","priority":false},{"lat":14.087,"lon":73.0529,"layer":"satellites","tone":"gold","size":2.8,"label":"ERS 15","source":"OSIRIS satellites","url":"","priority":false},{"lat":55.6911,"lon":118.5619,"layer":"satellites","tone":"gold","size":2.8,"label":"ISIS 1","source":"OSIRIS satellites","url":"","priority":false},{"lat":48.1346,"lon":-70.547,"layer":"satellites","tone":"gold","size":2.8,"label":"OPS 7613 (P/L 4)","source":"OSIRIS satellites","url":"","priority":false},{"lat":-60.916,"lon":-12.4504,"layer":"satellites","tone":"gold","size":2.8,"label":"OPS 7613 (P/L 1)","source":"OSIRIS satellites","url":"","priority":false},{"lat":-24.4586,"lon":137.0997,"layer":"satellites","tone":"gold","size":2.8,"label":"SHINSEI (MS-F2)","source":"OSIRIS satellites","url":"","priority":false},{"lat":4.9695,"lon":-17.3384,"layer":"satellites","tone":"gold","size":2.8,"label":"OPS 7898 (P/L 2)","source":"OSIRIS satellites","url":"","priority":false},{"lat":-11.6966,"lon":81.0247,"layer":"satellites","tone":"gold","size":2.8,"label":"EUTE 1-F4 (ECS 4)","source":"OSIRIS satellites","url":"","priority":false},{"lat":42.3278,"lon":-163.3294,"layer":"satellites","tone":"gold","size":2.8,"label":"MAKERSAT 0","source":"OSIRIS satellites","url":"","priority":false},{"lat":17.073,"lon":175.0851,"layer":"satellites","tone":"gold","size":2.8,"label":"CLUSTER II-FM7","source":"OSIRIS satellites","url":"","priority":false},{"lat":-68.3328,"lon":-175.5536,"layer":"satellites","tone":"gold","size":2.8,"label":"CARTOSAT 3","source":"OSIRIS satellites","url":"","priority":false},{"lat":56.036,"lon":148.214,"layer":"satellites","tone":"gold","size":2.8,"label":"LINGQIAO VIDEO A","source":"OSIRIS satellites","url":"","priority":false},{"lat":55.7225,"lon":149.2141,"layer":"satellites","tone":"gold","size":2.8,"label":"LINGQIAO VIDEO B","source":"OSIRIS satellites","url":"","priority":false},{"lat":-43.2008,"lon":-24.3326,"layer":"satellites","tone":"gold","size":2.8,"label":"JILIN-1-03","source":"OSIRIS satellites","url":"","priority":false},{"lat":53.8223,"lon":151.7726,"layer":"satellites","tone":"gold","size":2.8,"label":"JILIN 1","source":"OSIRIS satellites","url":"","priority":false},{"lat":-40.6312,"lon":77.754,"layer":"satellites","tone":"gold","size":2.8,"label":"JILIN-01-04","source":"OSIRIS satellites","url":"","priority":false},{"lat":-65.6635,"lon":84.7023,"layer":"satellites","tone":"gold","size":2.8,"label":"JILIN-01-05","source":"OSIRIS satellites","url":"","priority":false},{"lat":-66.1749,"lon":82.157,"layer":"satellites","tone":"gold","size":2.8,"label":"JILIN-01-06","source":"OSIRIS satellites","url":"","priority":false},{"lat":-63.3006,"lon":-3.7736,"layer":"satellites","tone":"gold","size":2.8,"label":"JILIN-01-07","source":"OSIRIS satellites","url":"","priority":false},{"lat":-66.1498,"lon":-2.3991,"layer":"satellites","tone":"gold","size":2.8,"label":"JILIN-01-08","source":"OSIRIS satellites","url":"","priority":false},{"lat":-71.6004,"lon":-146.5159,"layer":"satellites","tone":"gold","size":2.8,"label":"JILIN-01-09","source":"OSIRIS satellites","url":"","priority":false},{"lat":-82.3964,"lon":160.9359,"layer":"satellites","tone":"gold","size":2.8,"label":"JILIN-01-10","source":"OSIRIS satellites","url":"","priority":false},{"lat":-31.1436,"lon":-117.0659,"layer":"satellites","tone":"gold","size":2.8,"label":"CSSWE","source":"OSIRIS satellites","url":"","priority":false},{"lat":-29.2714,"lon":-115.5772,"layer":"satellites","tone":"gold","size":2.8,"label":"IPEX","source":"OSIRIS satellites","url":"","priority":false},{"lat":-64.0546,"lon":-119.1665,"layer":"satellites","tone":"gold","size":2.8,"label":"CP5","source":"OSIRIS satellites","url":"","priority":false},{"lat":-70.7671,"lon":-67.1396,"layer":"satellites","tone":"gold","size":2.8,"label":"PROSPERO (BLACK ARROW)","source":"OSIRIS satellites","url":"","priority":false},{"lat":-44.3463,"lon":18.9647,"layer":"satellites","tone":"gold","size":2.8,"label":"CUBEL","source":"OSIRIS satellites","url":"","priority":false},{"lat":-12.1123,"lon":171.6873,"layer":"satellites","tone":"gold","size":2.8,"label":"SECOR 4 (EGRS 4)","source":"OSIRIS satellites","url":"","priority":false},{"lat":-46.5157,"lon":-125.8286,"layer":"satellites","tone":"gold","size":2.8,"label":"UNISAT 7","source":"OSIRIS satellites","url":"","priority":false},{"lat":-67.954,"lon":-118.8652,"layer":"satellites","tone":"gold","size":2.8,"label":"OBJECT F","source":"OSIRIS satellites","url":"","priority":false},{"lat":-42.1136,"lon":49.2623,"layer":"satellites","tone":"gold","size":2.8,"label":"OBJECT X","source":"OSIRIS satellites","url":"","priority":false},{"lat":36.2169,"lon":133.3156,"layer":"satellites","tone":"gold","size":2.8,"label":"HJ-1A","source":"OSIRIS satellites","url":"","priority":false},{"lat":38.7191,"lon":137.0531,"layer":"satellites","tone":"gold","size":2.8,"label":"HJ-1B","source":"OSIRIS satellites","url":"","priority":false},{"lat":-0.9409,"lon":-127.9706,"layer":"satellites","tone":"gold","size":2.8,"label":"TURKSAT 3U","source":"OSIRIS satellites","url":"","priority":false},{"lat":9.212,"lon":144.3777,"layer":"satellites","tone":"gold","size":2.8,"label":"CSS (TIANHE-1)","source":"OSIRIS satellites","url":"","priority":false},{"lat":-54.3048,"lon":-179.8064,"layer":"satellites","tone":"gold","size":2.8,"label":"SIRION PATHFINDER-2","source":"OSIRIS satellites","url":"","priority":false},{"lat":-24.1818,"lon":66.2191,"layer":"satellites","tone":"gold","size":2.8,"label":"MEGSAT 1","source":"OSIRIS satellites","url":"","priority":false},{"lat":64.4172,"lon":142.9724,"layer":"satellites","tone":"gold","size":2.8,"label":"FARADAY_PHOENIX","source":"OSIRIS satellites","url":"","priority":false},{"lat":-3.4055,"lon":155.3332,"layer":"satellites","tone":"gold","size":2.8,"label":"DEMO8(TENZING)","source":"OSIRIS satellites","url":"","priority":false},{"lat":69.3264,"lon":141.0008,"layer":"satellites","tone":"gold","size":2.8,"label":"SPARTAN","source":"OSIRIS satellites","url":"","priority":false},{"lat":-49.1218,"lon":-53.3413,"layer":"satellites","tone":"gold","size":2.8,"label":"FENGYUN 3D","source":"OSIRIS satellites","url":"","priority":false},{"lat":-48.6791,"lon":-24.7726,"layer":"satellites","tone":"gold","size":2.8,"label":"FENGYUN 3E","source":"OSIRIS satellites","url":"","priority":false},{"lat":-15.9522,"lon":96.5274,"layer":"satellites","tone":"gold","size":2.8,"label":"ISS (NAUKA)","source":"OSIRIS satellites","url":"","priority":false},{"lat":0.1631,"lon":-81.4575,"layer":"satellites","tone":"gold","size":2.8,"label":"ELEKTRO-L 3","source":"OSIRIS satellites","url":"","priority":false},{"lat":-49.831,"lon":-88.2551,"layer":"satellites","tone":"gold","size":2.8,"label":"NOAA 20","source":"OSIRIS satellites","url":"","priority":false},{"lat":-34.7014,"lon":144.6157,"layer":"satellites","tone":"gold","size":2.8,"label":"PROBA 1","source":"OSIRIS satellites","url":"","priority":false},{"lat":-82.605,"lon":115.4273,"layer":"satellites","tone":"gold","size":2.8,"label":"CUPID","source":"OSIRIS satellites","url":"","priority":false},{"lat":69.2886,"lon":-99.1548,"layer":"satellites","tone":"gold","size":2.8,"label":"CUTE-LASP","source":"OSIRIS satellites","url":"","priority":false},{"lat":-82.9142,"lon":82.8135,"layer":"satellites","tone":"gold","size":2.8,"label":"ZHUHAI-1 OHS-02","source":"OSIRIS satellites","url":"","priority":false},{"lat":1.8834,"lon":85.8245,"layer":"satellites","tone":"gold","size":2.8,"label":"PERSEUS M1","source":"OSIRIS satellites","url":"","priority":false},{"lat":6.016,"lon":-24.3727,"layer":"satellites","tone":"gold","size":2.8,"label":"ORBCOMM FM 36","source":"OSIRIS satellites","url":"","priority":false},{"lat":66.4151,"lon":-21.0708,"layer":"satellites","tone":"gold","size":2.8,"label":"DMSP 5D-2 F15 (USA 147)","source":"OSIRIS satellites","url":"","priority":false},{"lat":10.3299,"lon":-131.2684,"layer":"satellites","tone":"gold","size":2.8,"label":"GEOSAT","source":"OSIRIS satellites","url":"","priority":false},{"lat":-23.7036,"lon":168.0889,"layer":"satellites","tone":"gold","size":2.8,"label":"FORTE","source":"OSIRIS satellites","url":"","priority":false},{"lat":-75.7407,"lon":170.8019,"layer":"satellites","tone":"gold","size":2.8,"label":"LEMUR 2 FURIAUS","source":"OSIRIS satellites","url":"","priority":false},{"lat":-82.1858,"lon":94.9956,"layer":"satellites","tone":"gold","size":2.8,"label":"ZHUHAI-1 OVS-02","source":"OSIRIS satellites","url":"","priority":false},{"lat":-29.8948,"lon":28.3342,"layer":"satellites","tone":"gold","size":2.8,"label":"3CAT-5/A (TYVAK-0161)","source":"OSIRIS satellites","url":"","priority":false},{"lat":-25.7802,"lon":28.9495,"layer":"satellites","tone":"gold","size":2.8,"label":"3CAT-5/B (TYVAK-0162)","source":"OSIRIS satellites","url":"","priority":false},{"lat":-77.4098,"lon":158.2253,"layer":"satellites","tone":"gold","size":2.8,"label":"SEAHAWK-1","source":"OSIRIS satellites","url":"","priority":false},{"lat":17.0301,"lon":65.7174,"layer":"satellites","tone":"gold","size":2.8,"label":"GLOBAL-4","source":"OSIRIS satellites","url":"","priority":false},{"lat":-18.2492,"lon":69.6419,"layer":"satellites","tone":"gold","size":2.8,"label":"TIANQI-6","source":"OSIRIS satellites","url":"","priority":false},{"lat":-16.6889,"lon":-64.494,"layer":"satellites","tone":"gold","size":2.8,"label":"WNISAT 1R","source":"OSIRIS satellites","url":"","priority":false},{"lat":-15.4084,"lon":-148.419,"layer":"satellites","tone":"gold","size":2.8,"label":"FORMOSAT7-3/COSMIC2-3","source":"OSIRIS satellites","url":"","priority":false},{"lat":-0.34,"lon":28.1977,"layer":"satellites","tone":"gold","size":2.8,"label":"FORMOSAT7-1/COSMIC2-1","source":"OSIRIS satellites","url":"","priority":false},{"lat":4.7861,"lon":137.6589,"layer":"satellites","tone":"gold","size":2.8,"label":"FORMOSAT7-2/COSMIC2-2","source":"OSIRIS satellites","url":"","priority":false},{"lat":4.7492,"lon":-42.3375,"layer":"satellites","tone":"gold","size":2.8,"label":"FORMOSAT7-6/COSMIC2-6","source":"OSIRIS satellites","url":"","priority":false},{"lat":4.7373,"lon":-102.5052,"layer":"satellites","tone":"gold","size":2.8,"label":"FORMOSAT7-5/COSMIC2-5","source":"OSIRIS satellites","url":"","priority":false},{"lat":34.6518,"lon":30.7778,"layer":"satellites","tone":"gold","size":2.8,"label":"NAPA-1","source":"OSIRIS satellites","url":"","priority":false},{"lat":42.5565,"lon":-136.0197,"layer":"satellites","tone":"gold","size":2.8,"label":"TYVAK-0173","source":"OSIRIS satellites","url":"","priority":false},{"lat":50.3931,"lon":-10.4289,"layer":"satellites","tone":"gold","size":2.8,"label":"NAPA-2","source":"OSIRIS satellites","url":"","priority":false},{"lat":-3.4378,"lon":151.6298,"layer":"satellites","tone":"gold","size":2.8,"label":"MANDRAKE 2 ABLE","source":"OSIRIS satellites","url":"","priority":false},{"lat":-52.7756,"lon":112.5692,"layer":"satellites","tone":"gold","size":2.8,"label":"TYVAK-0130","source":"OSIRIS satellites","url":"","priority":false},{"lat":-29.5963,"lon":-163.8425,"layer":"satellites","tone":"gold","size":2.8,"label":"TYVAK-182A","source":"OSIRIS satellites","url":"","priority":false},{"lat":10.128,"lon":152.7066,"layer":"satellites","tone":"gold","size":2.8,"label":"MANDRAKE 2 BAKER","source":"OSIRIS satellites","url":"","priority":false},{"lat":-65.0967,"lon":161.0506,"layer":"satellites","tone":"gold","size":2.8,"label":"Z-SAT","source":"OSIRIS satellites","url":"","priority":false},{"lat":-39.3971,"lon":165.1414,"layer":"satellites","tone":"gold","size":2.8,"label":"TEIKYOSAT-4 (OORURI)","source":"OSIRIS satellites","url":"","priority":false},{"lat":-82.3884,"lon":77.6767,"layer":"satellites","tone":"gold","size":2.8,"label":"KOSEN-1","source":"OSIRIS satellites","url":"","priority":false},{"lat":14.8863,"lon":51.8672,"layer":"satellites","tone":"gold","size":2.8,"label":"XW-3 (CAS 9)","source":"OSIRIS satellites","url":"","priority":false},{"lat":-37.8439,"lon":-53.0735,"layer":"satellites","tone":"gold","size":2.8,"label":"PROBA V","source":"OSIRIS satellites","url":"","priority":false},{"lat":54.8044,"lon":133.1394,"layer":"satellites","tone":"gold","size":2.8,"label":"PROBA 2","source":"OSIRIS satellites","url":"","priority":false},{"lat":78.0878,"lon":-73.811,"layer":"satellites","tone":"gold","size":2.8,"label":"SMAP","source":"OSIRIS satellites","url":"","priority":false},{"lat":-15.8015,"lon":-53.9993,"layer":"satellites","tone":"gold","size":2.8,"label":"HAIYANG 1B","source":"OSIRIS satellites","url":"","priority":false},{"lat":44.1297,"lon":35.4343,"layer":"satellites","tone":"gold","size":2.8,"label":"HYPSO-1","source":"OSIRIS satellites","url":"","priority":false},{"lat":-26.2857,"lon":38.9883,"layer":"satellites","tone":"gold","size":2.8,"label":"BRO-5","source":"OSIRIS satellites","url":"","priority":false},{"lat":-75.2242,"lon":48.2347,"layer":"satellites","tone":"gold","size":2.8,"label":"ION SCV-004","source":"OSIRIS satellites","url":"","priority":false},{"lat":-64.8672,"lon":-27.3827,"layer":"satellites","tone":"gold","size":2.8,"label":"AIST 2","source":"OSIRIS satellites","url":"","priority":false},{"lat":-53.2233,"lon":120.3183,"layer":"satellites","tone":"gold","size":2.8,"label":"OBJECT V","source":"OSIRIS satellites","url":"","priority":false},{"lat":-32.126,"lon":114.795,"layer":"satellites","tone":"gold","size":2.8,"label":"ION SCV-006","source":"OSIRIS satellites","url":"","priority":false},{"lat":17.0501,"lon":31.6492,"layer":"satellites","tone":"gold","size":2.8,"label":"KAZEOSAT 1","source":"OSIRIS satellites","url":"","priority":false},{"lat":-37.2294,"lon":172.6636,"layer":"satellites","tone":"gold","size":2.8,"label":"GLOBAL-2","source":"OSIRIS satellites","url":"","priority":false},{"lat":70.0317,"lon":-66.9091,"layer":"satellites","tone":"gold","size":2.8,"label":"BRITE TORONTO","source":"OSIRIS satellites","url":"","priority":false},{"lat":4.4998,"lon":-105.7171,"layer":"satellites","tone":"gold","size":2.8,"label":"BRITE-PL 2","source":"OSIRIS satellites","url":"","priority":false},{"lat":-58.6682,"lon":123.6698,"layer":"satellites","tone":"gold","size":2.8,"label":"SHERPA-AC1","source":"OSIRIS satellites","url":"","priority":false},{"lat":52.0917,"lon":129.2379,"layer":"satellites","tone":"gold","size":2.8,"label":"HILAT","source":"OSIRIS satellites","url":"","priority":false},{"lat":-21.5493,"lon":-166.8173,"layer":"satellites","tone":"gold","size":2.8,"label":"AII-BRAVO","source":"OSIRIS satellites","url":"","priority":false},{"lat":-20.1888,"lon":59.9078,"layer":"satellites","tone":"gold","size":2.8,"label":"LEMUR 2 KADI","source":"OSIRIS satellites","url":"","priority":false},{"lat":44.1157,"lon":-148.551,"layer":"satellites","tone":"gold","size":2.8,"label":"OMNI-L2","source":"OSIRIS satellites","url":"","priority":false},{"lat":-16.8381,"lon":54.976,"layer":"satellites","tone":"gold","size":2.8,"label":"BRO-6","source":"OSIRIS satellites","url":"","priority":false},{"lat":4.6936,"lon":-139.3766,"layer":"satellites","tone":"gold","size":2.8,"label":"OBJECT L","source":"OSIRIS satellites","url":"","priority":false},{"lat":2.8135,"lon":-129.7271,"layer":"satellites","tone":"gold","size":2.8,"label":"OBJECT H","source":"OSIRIS satellites","url":"","priority":false},{"lat":49.2746,"lon":96.155,"layer":"satellites","tone":"gold","size":2.8,"label":"CBERS 2B","source":"OSIRIS satellites","url":"","priority":false},{"lat":22.5643,"lon":-33.9643,"layer":"satellites","tone":"gold","size":2.8,"label":"PEGASUS R/B","source":"OSIRIS satellites","url":"","priority":false},{"lat":-63.296,"lon":5.1728,"layer":"satellites","tone":"gold","size":2.8,"label":"NOAA 2 (ITOS-D)","source":"OSIRIS satellites","url":"","priority":false},{"lat":59.7082,"lon":-69.4963,"layer":"satellites","tone":"gold","size":2.8,"label":"DMC 2","source":"OSIRIS satellites","url":"","priority":false},{"lat":31.001,"lon":11.5992,"layer":"satellites","tone":"gold","size":2.8,"label":"DMC 3-FM1","source":"OSIRIS satellites","url":"","priority":false},{"lat":30.9615,"lon":13.1888,"layer":"satellites","tone":"gold","size":2.8,"label":"DMC 3-FM2","source":"OSIRIS satellites","url":"","priority":false},{"lat":31.0216,"lon":14.9769,"layer":"satellites","tone":"gold","size":2.8,"label":"DMC 3-FM3","source":"OSIRIS satellites","url":"","priority":false},{"lat":0.0171,"lon":13.4538,"layer":"satellites","tone":"gold","size":2.8,"label":"SSTL S1-4","source":"OSIRIS satellites","url":"","priority":false},{"lat":56.521,"lon":-133.7211,"layer":"satellites","tone":"gold","size":2.8,"label":"MOHAMMED VI-B","source":"OSIRIS satellites","url":"","priority":false},{"lat":56.6487,"lon":-133.621,"layer":"satellites","tone":"gold","size":2.8,"label":"MOHAMMED VI-A","source":"OSIRIS satellites","url":"","priority":false},{"lat":37.71,"lon":-34.1298,"layer":"satellites","tone":"gold","size":2.8,"label":"CARBONITE 1","source":"OSIRIS satellites","url":"","priority":false},{"lat":77.9798,"lon":62.9654,"layer":"satellites","tone":"gold","size":2.8,"label":"STEP CUBE LAB-II","source":"OSIRIS satellites","url":"","priority":false},{"lat":78.7931,"lon":59.2379,"layer":"satellites","tone":"gold","size":2.8,"label":"RANDEV","source":"OSIRIS satellites","url":"","priority":false},{"lat":80.0197,"lon":51.4154,"layer":"satellites","tone":"gold","size":2.8,"label":"SNUGLITE-II","source":"OSIRIS satellites","url":"","priority":false},{"lat":-3.6664,"lon":40.0043,"layer":"satellites","tone":"gold","size":2.8,"label":"AISSAT 1","source":"OSIRIS satellites","url":"","priority":false},{"lat":-5.2273,"lon":140.7535,"layer":"satellites","tone":"gold","size":2.8,"label":"STARLINK-2342","source":"OSIRIS satellites","url":"","priority":false},{"lat":74.4751,"lon":72.6329,"layer":"satellites","tone":"gold","size":2.8,"label":"MIMAN","source":"OSIRIS satellites","url":"","priority":false},{"lat":76.2969,"lon":-101.3158,"layer":"satellites","tone":"gold","size":2.8,"label":"YOUTHSAT","source":"OSIRIS satellites","url":"","priority":false},{"lat":-4.9985,"lon":-29.6214,"layer":"satellites","tone":"gold","size":2.8,"label":"IRS 1B","source":"OSIRIS satellites","url":"","priority":false},{"lat":-0.59,"lon":101.2155,"layer":"satellites","tone":"gold","size":2.8,"label":"GOES 17","source":"OSIRIS satellites","url":"","priority":false},{"lat":0.1857,"lon":-3.2117,"layer":"satellites","tone":"gold","size":2.8,"label":"ATS 5","source":"OSIRIS satellites","url":"","priority":false},{"lat":-64.7906,"lon":45.6217,"layer":"satellites","tone":"gold","size":2.8,"label":"AVUM R/B","source":"OSIRIS satellites","url":"","priority":false},{"lat":-68.6538,"lon":-9.8242,"layer":"satellites","tone":"gold","size":2.8,"label":"LARES-2","source":"OSIRIS satellites","url":"","priority":false},{"lat":-81.5581,"lon":166.6708,"layer":"satellites","tone":"gold","size":2.8,"label":"VIGORIDE 3","source":"OSIRIS satellites","url":"","priority":false},{"lat":-74.4609,"lon":-101.2072,"layer":"satellites","tone":"gold","size":2.8,"label":"COSMOS 2499","source":"OSIRIS satellites","url":"","priority":false},{"lat":48.5741,"lon":-63.3591,"layer":"satellites","tone":"gold","size":2.8,"label":"SAUDISAT 4","source":"OSIRIS satellites","url":"","priority":false},{"lat":60.0462,"lon":-53.5389,"layer":"satellites","tone":"gold","size":2.8,"label":"SAUDISAT 2","source":"OSIRIS satellites","url":"","priority":false},{"lat":-22.4818,"lon":151.7209,"layer":"satellites","tone":"gold","size":2.8,"label":"YAM-3","source":"OSIRIS satellites","url":"","priority":false},{"lat":-50.2948,"lon":-6.8714,"layer":"satellites","tone":"gold","size":2.8,"label":"TIROS N","source":"OSIRIS satellites","url":"","priority":false},{"lat":15.7376,"lon":78.6565,"layer":"satellites","tone":"gold","size":2.8,"label":"TIROS 10","source":"OSIRIS satellites","url":"","priority":false},{"lat":-10.2758,"lon":-106.6989,"layer":"satellites","tone":"gold","size":2.8,"label":"SECOR 7 (EGRS 7)","source":"OSIRIS satellites","url":"","priority":false},{"lat":39.6669,"lon":21.3826,"layer":"satellites","tone":"gold","size":2.8,"label":"SECOR 13 (EGRS 13)","source":"OSIRIS satellites","url":"","priority":false},{"lat":40.0742,"lon":-132.7881,"layer":"satellites","tone":"gold","size":2.8,"label":"OMNI-L1","source":"OSIRIS satellites","url":"","priority":false},{"lat":-82.5715,"lon":-35.3768,"layer":"satellites","tone":"gold","size":2.8,"label":"KHAYYAM","source":"OSIRIS satellites","url":"","priority":false},{"lat":-75.5744,"lon":49.6018,"layer":"satellites","tone":"gold","size":2.8,"label":"FENGYUN 1D","source":"OSIRIS satellites","url":"","priority":false},{"lat":-5.9425,"lon":29.6428,"layer":"satellites","tone":"gold","size":2.8,"label":"STARLINK-3100","source":"OSIRIS satellites","url":"","priority":false},{"lat":-57.0229,"lon":34.6789,"layer":"satellites","tone":"gold","size":2.8,"label":"STARLINK-4410","source":"OSIRIS satellites","url":"","priority":false},{"lat":-28.0365,"lon":-103.3473,"layer":"satellites","tone":"gold","size":2.8,"label":"STARLINK-4400","source":"OSIRIS satellites","url":"","priority":false},{"lat":-28.2617,"lon":16.8814,"layer":"satellites","tone":"gold","size":2.8,"label":"STARLINK-4621","source":"OSIRIS satellites","url":"","priority":false},{"lat":-28.2347,"lon":-43.3176,"layer":"satellites","tone":"gold","size":2.8,"label":"STARLINK-4362","source":"OSIRIS satellites","url":"","priority":false},{"lat":-40.0891,"lon":164.26,"layer":"satellites","tone":"gold","size":2.8,"label":"BLUEWALKER 3","source":"OSIRIS satellites","url":"","priority":false},{"lat":18.7616,"lon":-49.4506,"layer":"satellites","tone":"gold","size":2.8,"label":"OTB-3-GAZELLE","source":"OSIRIS satellites","url":"","priority":false},{"lat":-36.8929,"lon":144.8388,"layer":"satellites","tone":"gold","size":2.8,"label":"KSM1-A","source":"OSIRIS satellites","url":"","priority":false},{"lat":-36.7326,"lon":146.5941,"layer":"satellites","tone":"gold","size":2.8,"label":"KSM1-B","source":"OSIRIS satellites","url":"","priority":false},{"lat":-36.877,"lon":145.4842,"layer":"satellites","tone":"gold","size":2.8,"label":"KSM1-C","source":"OSIRIS satellites","url":"","priority":false},{"lat":53.0835,"lon":123.978,"layer":"satellites","tone":"gold","size":2.8,"label":"SHERPA-LTC2","source":"OSIRIS satellites","url":"","priority":false},{"lat":4.0861,"lon":-3.5359,"layer":"satellites","tone":"gold","size":2.8,"label":"OSCAR 16 (PACSAT)","source":"OSIRIS satellites","url":"","priority":false},{"lat":3.0204,"lon":-132.5642,"layer":"satellites","tone":"gold","size":2.8,"label":"COSMOS 2463","source":"OSIRIS satellites","url":"","priority":false},{"lat":-33.5437,"lon":26.6,"layer":"satellites","tone":"gold","size":2.8,"label":"COSMOS 2414","source":"OSIRIS satellites","url":"","priority":false},{"lat":-6.1014,"lon":-127.8494,"layer":"satellites","tone":"gold","size":2.8,"label":"COSMOS 2407","source":"OSIRIS satellites","url":"","priority":false},{"lat":-36.7685,"lon":146.8473,"layer":"satellites","tone":"gold","size":2.8,"label":"KSM1-D","source":"OSIRIS satellites","url":"","priority":false},{"lat":-6.3966,"lon":118.8091,"layer":"satellites","tone":"gold","size":2.8,"label":"IRIDIUM 116","source":"OSIRIS satellites","url":"","priority":false},{"lat":-6.3973,"lon":119.005,"layer":"satellites","tone":"gold","size":2.8,"label":"IRIDIUM 113","source":"OSIRIS satellites","url":"","priority":false},{"lat":-6.3985,"lon":119.0975,"layer":"satellites","tone":"gold","size":2.8,"label":"IRIDIUM 130","source":"OSIRIS satellites","url":"","priority":false},{"lat":-69.1481,"lon":71.364,"layer":"satellites","tone":"gold","size":2.8,"label":"OBJECT R","source":"OSIRIS satellites","url":"","priority":false},{"lat":34.0131,"lon":9.8423,"layer":"satellites","tone":"gold","size":2.8,"label":"JILIN-01 GAOFEN 3H","source":"OSIRIS satellites","url":"","priority":false},{"lat":43.9754,"lon":11.3453,"layer":"satellites","tone":"gold","size":2.8,"label":"JILIN-01 GAOFEN 3G","source":"OSIRIS satellites","url":"","priority":false},{"lat":13.7613,"lon":9.8535,"layer":"satellites","tone":"gold","size":2.8,"label":"JILIN-01 GAOFEN 3F","source":"OSIRIS satellites","url":"","priority":false},{"lat":21.7359,"lon":11.3659,"layer":"satellites","tone":"gold","size":2.8,"label":"JILIN-01 GAOFEN 3E","source":"OSIRIS satellites","url":"","priority":false},{"lat":55.1258,"lon":-11.4678,"layer":"satellites","tone":"gold","size":2.8,"label":"ARKTIKA-M 1","source":"OSIRIS satellites","url":"","priority":false},{"lat":31.6571,"lon":54.7532,"layer":"satellites","tone":"gold","size":2.8,"label":"EOS-6","source":"OSIRIS satellites","url":"","priority":false},{"lat":-48.5177,"lon":-21.3894,"layer":"satellites","tone":"gold","size":2.8,"label":"CORIOLIS","source":"OSIRIS satellites","url":"","priority":false},{"lat":29.134,"lon":-176.4296,"layer":"satellites","tone":"gold","size":2.8,"label":"CLOUDSAT","source":"OSIRIS satellites","url":"","priority":false},{"lat":2.6239,"lon":15.0634,"layer":"satellites","tone":"gold","size":2.8,"label":"ELEKTRO-L","source":"OSIRIS satellites","url":"","priority":false},{"lat":4.7434,"lon":1.6038,"layer":"satellites","tone":"gold","size":2.8,"label":"ELEKTRO-L 2","source":"OSIRIS satellites","url":"","priority":false},{"lat":53.3051,"lon":91.4826,"layer":"satellites","tone":"gold","size":2.8,"label":"CENTISPACE-1 S6","source":"OSIRIS satellites","url":"","priority":false},{"lat":50.9523,"lon":-72.3032,"layer":"satellites","tone":"gold","size":2.8,"label":"CENTISPACE-1 S3","source":"OSIRIS satellites","url":"","priority":false},{"lat":65.9672,"lon":-67.1157,"layer":"satellites","tone":"gold","size":2.8,"label":"APRIZESAT 9","source":"OSIRIS satellites","url":"","priority":false},{"lat":14.3772,"lon":96.9817,"layer":"satellites","tone":"gold","size":2.8,"label":"APRIZESAT 7","source":"OSIRIS satellites","url":"","priority":false},{"lat":26.2237,"lon":93.0851,"layer":"satellites","tone":"gold","size":2.8,"label":"APRIZESAT 8","source":"OSIRIS satellites","url":"","priority":false},{"lat":-61.3378,"lon":36.7892,"layer":"satellites","tone":"gold","size":2.8,"label":"APRIZESAT 6","source":"OSIRIS satellites","url":"","priority":false},{"lat":-27.2098,"lon":139.3361,"layer":"satellites","tone":"gold","size":2.8,"label":"MATS","source":"OSIRIS satellites","url":"","priority":false},{"lat":-58.6322,"lon":33.6974,"layer":"satellites","tone":"gold","size":2.8,"label":"LYNK TOWER 3","source":"OSIRIS satellites","url":"","priority":false},{"lat":-67.0478,"lon":38.1583,"layer":"satellites","tone":"gold","size":2.8,"label":"LYNK TOWER 4","source":"OSIRIS satellites","url":"","priority":false},{"lat":-19.3833,"lon":34.893,"layer":"satellites","tone":"gold","size":2.8,"label":"KUWAITSAT-1","source":"OSIRIS satellites","url":"","priority":false},{"lat":-16.4364,"lon":34.3921,"layer":"satellites","tone":"gold","size":2.8,"label":"CONNECTA T1.2","source":"OSIRIS satellites","url":"","priority":false},{"lat":-21.2351,"lon":29.7169,"layer":"satellites","tone":"gold","size":2.8,"label":"BRO-8","source":"OSIRIS satellites","url":"","priority":false},{"lat":-47.5785,"lon":37.0115,"layer":"satellites","tone":"gold","size":2.8,"label":"HUYGENS","source":"OSIRIS satellites","url":"","priority":false},{"lat":-40.1423,"lon":32.3612,"layer":"satellites","tone":"gold","size":2.8,"label":"OBJECT A","source":"OSIRIS satellites","url":"","priority":false},{"lat":-47.5656,"lon":37.7852,"layer":"satellites","tone":"gold","size":2.8,"label":"BIRKELAND","source":"OSIRIS satellites","url":"","priority":false},{"lat":-77.9773,"lon":56.2224,"layer":"satellites","tone":"gold","size":2.8,"label":"SKYKRAFT-1A","source":"OSIRIS satellites","url":"","priority":false},{"lat":-66.4253,"lon":39.2814,"layer":"satellites","tone":"gold","size":2.8,"label":"EOSSAT-1","source":"OSIRIS satellites","url":"","priority":false},{"lat":-79.5578,"lon":103.7689,"layer":"satellites","tone":"gold","size":2.8,"label":"ION SCV-008","source":"OSIRIS satellites","url":"","priority":false},{"lat":55.2023,"lon":-143.8748,"layer":"satellites","tone":"gold","size":2.8,"label":"ION SCV-007","source":"OSIRIS satellites","url":"","priority":false},{"lat":14.8592,"lon":30.998,"layer":"satellites","tone":"gold","size":2.8,"label":"VIGORIDE 5","source":"OSIRIS satellites","url":"","priority":false},{"lat":-52.0801,"lon":34.092,"layer":"satellites","tone":"gold","size":2.8,"label":"YAM-5","source":"OSIRIS satellites","url":"","priority":false},{"lat":-80.6255,"lon":74.3191,"layer":"satellites","tone":"gold","size":2.8,"label":"SAUDISAT 5A","source":"OSIRIS satellites","url":"","priority":false},{"lat":-80.1079,"lon":73.8693,"layer":"satellites","tone":"gold","size":2.8,"label":"SAUDISAT 5B","source":"OSIRIS satellites","url":"","priority":false},{"lat":-75.7401,"lon":55.2937,"layer":"satellites","tone":"gold","size":2.8,"label":"CONTINUUM-1","source":"OSIRIS satellites","url":"","priority":false},{"lat":-45.9062,"lon":35.5592,"layer":"satellites","tone":"gold","size":2.8,"label":"ETV-A1","source":"OSIRIS satellites","url":"","priority":false},{"lat":58.1634,"lon":-142.6032,"layer":"satellites","tone":"gold","size":2.8,"label":"GAOFEN 6","source":"OSIRIS satellites","url":"","priority":false},{"lat":-74.6361,"lon":175.7601,"layer":"satellites","tone":"gold","size":2.8,"label":"GAOFEN 7","source":"OSIRIS satellites","url":"","priority":false},{"lat":42.7913,"lon":-143.3688,"layer":"satellites","tone":"gold","size":2.8,"label":"CBERS 4A","source":"OSIRIS satellites","url":"","priority":false},{"lat":-43.5413,"lon":-120.3811,"layer":"satellites","tone":"gold","size":2.8,"label":"NINGXIA-1 1","source":"OSIRIS satellites","url":"","priority":false},{"lat":-74.0082,"lon":-169.3211,"layer":"satellites","tone":"gold","size":2.8,"label":"ZY 3 2","source":"OSIRIS satellites","url":"","priority":false},{"lat":-76.2374,"lon":114.2075,"layer":"satellites","tone":"gold","size":2.8,"label":"HJ-2E","source":"OSIRIS satellites","url":"","priority":false},{"lat":23.1305,"lon":152.5569,"layer":"satellites","tone":"gold","size":2.8,"label":"LT-1 01A","source":"OSIRIS satellites","url":"","priority":false},{"lat":-24.9208,"lon":131.47,"layer":"satellites","tone":"gold","size":2.8,"label":"ICEYE-X6","source":"OSIRIS satellites","url":"","priority":false},{"lat":-76.6753,"lon":115.4684,"layer":"satellites","tone":"gold","size":2.8,"label":"ASNARO-2","source":"OSIRIS satellites","url":"","priority":false},{"lat":70.2012,"lon":-130.4981,"layer":"satellites","tone":"gold","size":2.8,"label":"EGYPTSAT A","source":"OSIRIS satellites","url":"","priority":false},{"lat":-49.7923,"lon":55.2556,"layer":"satellites","tone":"gold","size":2.8,"label":"SUPERVIEW-1 03","source":"OSIRIS satellites","url":"","priority":false},{"lat":24.3045,"lon":-29.8948,"layer":"satellites","tone":"gold","size":2.8,"label":"HODOYOSHI 4","source":"OSIRIS satellites","url":"","priority":false},{"lat":51.8969,"lon":-141.2395,"layer":"satellites","tone":"gold","size":2.8,"label":"HYSIS","source":"OSIRIS satellites","url":"","priority":false},{"lat":-59.853,"lon":133.4584,"layer":"satellites","tone":"gold","size":2.8,"label":"CFOSAT","source":"OSIRIS satellites","url":"","priority":false},{"lat":-13.1649,"lon":22.3604,"layer":"satellites","tone":"gold","size":2.8,"label":"COSMOS 2561","source":"OSIRIS satellites","url":"","priority":false},{"lat":-21.0761,"lon":33.2754,"layer":"satellites","tone":"gold","size":2.8,"label":"SHARJAHSAT-1","source":"OSIRIS satellites","url":"","priority":false},{"lat":-46.4028,"lon":126.2608,"layer":"satellites","tone":"gold","size":2.8,"label":"XINGYUN-2 01","source":"OSIRIS satellites","url":"","priority":false},{"lat":-7.4177,"lon":54.5242,"layer":"satellites","tone":"gold","size":2.8,"label":"ARCSAT-1","source":"OSIRIS satellites","url":"","priority":false},{"lat":-23.9274,"lon":-153.6139,"layer":"satellites","tone":"gold","size":2.8,"label":"GLOBAL-13","source":"OSIRIS satellites","url":"","priority":false},{"lat":-6.2803,"lon":-150.8389,"layer":"satellites","tone":"gold","size":2.8,"label":"GLOBAL-12","source":"OSIRIS satellites","url":"","priority":false},{"lat":65.014,"lon":-107.1115,"layer":"satellites","tone":"gold","size":2.8,"label":"SKIF-D","source":"OSIRIS satellites","url":"","priority":false},{"lat":-71.3938,"lon":-177.8776,"layer":"satellites","tone":"gold","size":2.8,"label":"OBJECT J","source":"OSIRIS satellites","url":"","priority":false},{"lat":-6.4734,"lon":-95.5814,"layer":"satellites","tone":"gold","size":2.8,"label":"HAIYANG 1D","source":"OSIRIS satellites","url":"","priority":false},{"lat":69.2783,"lon":-61.433,"layer":"satellites","tone":"gold","size":2.8,"label":"TANSAT","source":"OSIRIS satellites","url":"","priority":false},{"lat":-61.9723,"lon":159.9612,"layer":"satellites","tone":"gold","size":2.8,"label":"SHIJIAN 6 03A (SJ-6 03A)","source":"OSIRIS satellites","url":"","priority":false},{"lat":32.4383,"lon":118.6755,"layer":"satellites","tone":"gold","size":2.8,"label":"SJ-9A","source":"OSIRIS satellites","url":"","priority":false},{"lat":61.354,"lon":-163.0053,"layer":"satellites","tone":"gold","size":2.8,"label":"KL-ALPHA A","source":"OSIRIS satellites","url":"","priority":false},{"lat":17.4464,"lon":-33.1335,"layer":"satellites","tone":"gold","size":2.8,"label":"GAOFEN 3","source":"OSIRIS satellites","url":"","priority":false},{"lat":-72.9803,"lon":167.261,"layer":"satellites","tone":"gold","size":2.8,"label":"LEMUR 2 GREENBERG","source":"OSIRIS satellites","url":"","priority":false},{"lat":-18.5828,"lon":-64.1789,"layer":"satellites","tone":"gold","size":2.8,"label":"HAIYANG 2D","source":"OSIRIS satellites","url":"","priority":false},{"lat":-23.283,"lon":46.4717,"layer":"satellites","tone":"gold","size":2.8,"label":"GLOBAL-18","source":"OSIRIS satellites","url":"","priority":false},{"lat":-6.4501,"lon":35.025,"layer":"satellites","tone":"gold","size":2.8,"label":"HAIYANG 1C","source":"OSIRIS satellites","url":"","priority":false},{"lat":53.858,"lon":93.107,"layer":"satellites","tone":"gold","size":2.8,"label":"CENTISPACE-1 S5","source":"OSIRIS satellites","url":"","priority":false},{"lat":-18.6718,"lon":-153.5929,"layer":"satellites","tone":"gold","size":2.8,"label":"HAIYANG 2C","source":"OSIRIS satellites","url":"","priority":false},{"lat":-69.9238,"lon":168.3474,"layer":"satellites","tone":"gold","size":2.8,"label":"SDGSAT 1","source":"OSIRIS satellites","url":"","priority":false},{"lat":56.1821,"lon":-8.7784,"layer":"satellites","tone":"gold","size":2.8,"label":"ODIN","source":"OSIRIS satellites","url":"","priority":false},{"lat":-36.8625,"lon":141.456,"layer":"satellites","tone":"gold","size":2.8,"label":"R2","source":"OSIRIS satellites","url":"","priority":false},{"lat":-11.2032,"lon":92.6991,"layer":"satellites","tone":"gold","size":2.8,"label":"GLOBAL-14","source":"OSIRIS satellites","url":"","priority":false},{"lat":-19.8475,"lon":39.9819,"layer":"satellites","tone":"gold","size":2.8,"label":"GLOBAL-9","source":"OSIRIS satellites","url":"","priority":false},{"lat":-11.9811,"lon":-145.6198,"layer":"satellites","tone":"gold","size":2.8,"label":"GLOBAL-16","source":"OSIRIS satellites","url":"","priority":false},{"lat":47.5176,"lon":84.9069,"layer":"satellites","tone":"gold","size":2.8,"label":"OBJECT K","source":"OSIRIS satellites","url":"","priority":false},{"lat":64.2577,"lon":59.5867,"layer":"satellites","tone":"gold","size":2.8,"label":"JILIN-01 GAOFEN 3D 28","source":"OSIRIS satellites","url":"","priority":false},{"lat":55.6793,"lon":64.2037,"layer":"satellites","tone":"gold","size":2.8,"label":"JILIN-01 GAOFEN 3D 27","source":"OSIRIS satellites","url":"","priority":false},{"lat":21.7515,"lon":17.1056,"layer":"satellites","tone":"gold","size":2.8,"label":"EMISAT","source":"OSIRIS satellites","url":"","priority":false},{"lat":65.0588,"lon":-163.6234,"layer":"satellites","tone":"gold","size":2.8,"label":"IRS P6","source":"OSIRIS satellites","url":"","priority":false},{"lat":-43.7164,"lon":37.6077,"layer":"satellites","tone":"gold","size":2.8,"label":"RESOURCESAT 2","source":"OSIRIS satellites","url":"","priority":false},{"lat":42.562,"lon":-129.3767,"layer":"satellites","tone":"gold","size":2.8,"label":"ORBCOMM FM 114","source":"OSIRIS satellites","url":"","priority":false},{"lat":42.6052,"lon":-129.7291,"layer":"satellites","tone":"gold","size":2.8,"label":"ORBCOMM FM 110","source":"OSIRIS satellites","url":"","priority":false},{"lat":42.5594,"lon":49.14,"layer":"satellites","tone":"gold","size":2.8,"label":"ORBCOMM FM 117","source":"OSIRIS satellites","url":"","priority":false},{"lat":42.6004,"lon":137.8524,"layer":"satellites","tone":"gold","size":2.8,"label":"ORBCOMM FM 116","source":"OSIRIS satellites","url":"","priority":false},{"lat":42.5586,"lon":137.9345,"layer":"satellites","tone":"gold","size":2.8,"label":"ORBCOMM FM 113","source":"OSIRIS satellites","url":"","priority":false},{"lat":42.601,"lon":137.5959,"layer":"satellites","tone":"gold","size":2.8,"label":"ORBCOMM FM 112","source":"OSIRIS satellites","url":"","priority":false},{"lat":42.57,"lon":49.7165,"layer":"satellites","tone":"gold","size":2.8,"label":"ORBCOMM FM 108","source":"OSIRIS satellites","url":"","priority":false},{"lat":-49.8244,"lon":-86.84,"layer":"satellites","tone":"gold","size":2.8,"label":"NPP","source":"OSIRIS satellites","url":"","priority":false},{"lat":-63.1514,"lon":-39.4864,"layer":"satellites","tone":"gold","size":2.8,"label":"DMSP 5D-3 F18 (USA 210)","source":"OSIRIS satellites","url":"","priority":false},{"lat":-60.6928,"lon":150.895,"layer":"satellites","tone":"gold","size":2.8,"label":"YAOGAN 10","source":"OSIRIS satellites","url":"","priority":false},{"lat":43.8903,"lon":146.6827,"layer":"satellites","tone":"gold","size":2.8,"label":"OMNI-M1","source":"OSIRIS satellites","url":"","priority":false},{"lat":-68.0031,"lon":107.8616,"layer":"satellites","tone":"gold","size":2.8,"label":"OCEANSAT 2","source":"OSIRIS satellites","url":"","priority":false},{"lat":-43.6501,"lon":43.6944,"layer":"satellites","tone":"gold","size":2.8,"label":"RESOURCESAT 2A","source":"OSIRIS satellites","url":"","priority":false},{"lat":38.3859,"lon":64.4578,"layer":"satellites","tone":"gold","size":2.8,"label":"BRO-9","source":"OSIRIS satellites","url":"","priority":false},{"lat":-82.6178,"lon":-60.5209,"layer":"satellites","tone":"gold","size":2.8,"label":"ION SCV-010","source":"OSIRIS satellites","url":"","priority":false},{"lat":58.1646,"lon":-125.9746,"layer":"satellites","tone":"gold","size":2.8,"label":"HJ-2B","source":"OSIRIS satellites","url":"","priority":false},{"lat":-9.1095,"lon":-63.1494,"layer":"satellites","tone":"gold","size":2.8,"label":"PAKTES 1A","source":"OSIRIS satellites","url":"","priority":false},{"lat":42.2166,"lon":-143.1968,"layer":"satellites","tone":"gold","size":2.8,"label":"PRSS 1","source":"OSIRIS satellites","url":"","priority":false}],"routes":[],"panel":[]}